$GPGSA,A,1,24,13,15,,,,,,,,,,8.23,8.17,1.00*06
$GPGSV,2,1,07,13,08,037,34,15,39,034,41,18,37,356,32,24,30,115,38*7F
$GPGSV,2,2,07,25,16,186,18,29,,,27,50,34,099,41*71
$GPGLL,,,,,065058.00,V,N*44
$GPRMC,065059.00,V,,,,,,,050823,,,N*7E
$GPVTG,,,,,,,,,N*30
$GPGGA,065059.00,,,,,0,03,8.17,,,,,,*54
$GPGSA,A,1,24,13,15,,,,,,,,,,8.23,8.17,1.00*06
$GPGSV,2,1,07,13,08,037,35,15,39,034,40,18,37,356,33,24,30,115,37*71
$GPGSV,2,2,07,25,16,186,22,29,,,27,50,34,099,41*78
$GPGLL,,,,,065059.00,V,N*45
$GPRMC,065100.00,V,,,,,,,050823,,,N*73
$GPVTG,,,,,,,,,N*30
$GPGGA,065100.00,,,,,0,03,8.18,,,,,,*56
$GPGSA,A,1,24,13,15,,,,,,,,,,8.24,8.18,1.00*0E
$GPGSV,2,1,07,13,08,037,35,15,39,034,40,18,37,356,35,24,30,115,39*79
$GPGSV,2,2,07,25,16,186,23,29,,,26,50,34,099,41*78
$GPGLL,,,,,065100.00,V,N*48
$GPRMC,065101.00,V,,,,,,,050823,,,N*72
$GPVTG,,,,,,,,,N*30
$GPGGA,065101.00,,,,,0,03,8.18,,,,,,*57
$GPGSA,A,1,24,13,15,,,,,,,,,,8.24,8.18,1.00*0E
$GPGSV,2,1,07,13,08,037,35,15,39,034,42,18,37,356,35,24,30,115,42*77
$GPGSV,2,2,07,25,16,186,22,29,,,27,50,34,099,41*78
$GPGLL,,,,,065101.00,V,N*49
$GPRMC,065102.00,V,,,,,,,050823,,,N*71
$GPVTG,,,,,,,,,N*30
$GPGGA,065102.00,,,,,0,03,8.18,,,,,,*54
$GPGSA,A,1,24,13,15,,,,,,,,,,8.24,8.18,1.00*0E
$GPGSV,2,1,07,13,08,037,37,15,39,034,43,18,37,356,34,24,30,115,39*79
$GPGSV,2,2,07,25,16,186,23,29,,,27,50,34,099,41*79
$GPGLL,,,,,065102.00,V,N*4A
$GPRMC,065103.00,V,,,,,,,050823,,,N*70
$GPVTG,,,,,,,,,N*30
$GPGGA,065103.00,,,,,0,03,8.18,,,,,,*55
$GPGSA,A,1,24,13,15,,,,,,,,,,8.24,8.18,1.00*0E
$GPGSV,2,1,07,13,08,037,37,15,39,034,41,18,37,356,36,24,30,115,37*77
$GPGSV,2,2,07,25,16,186,20,29,,,28,50,34,099,41*75
$GPGLL,,,,,065103.00,V,N*4B
$GPRMC,065104.00,V,,,,,,,050823,,,N*77
$GPVTG,,,,,,,,,N*30
$GPGGA,065104.00,,,,,0,03,8.18,,,,,,*52
$GPGSA,A,1,24,13,15,,,,,,,,,,8.24,8.18,1.00*0E
$GPGSV,2,1,07,13,08,037,35,15,39,034,40,18,37,356,33,24,30,115,35*73
$GPGSV,2,2,07,25,16,186,18,29,,,28,50,34,099,39*71
$GPGLL,,,,,065104.00,V,N*4C
$GPRMC,065105.00,V,,,,,,,050823,,,N*76
$GPVTG,,,,,,,,,N*30
$GPGGA,065105.00,,,,,0,03,8.19,,,,,,*52
$GPGSA,A,1,24,13,15,,,,,,,,,,8.25,8.19,1.00*0E
$GPGSV,2,1,07,13,08,037,35,15,39,034,39,18,37,356,33,24,30,115,38*70
$GPGSV,2,2,07,25,16,186,16,29,,,28,50,34,099,39*7F
$GPGLL,,,,,065105.00,V,N*4D
$GPRMC,065106.00,V,,,,,,,050823,,,N*75
$GPVTG,,,,,,,,,N*30
$GPGGA,065106.00,,,,,0,03,8.19,,,,,,*51
$GPGSA,A,1,24,13,15,,,,,,,,,,8.25,8.19,1.00*0E
$GPGSV,2,1,07,13,08,037,36,15,39,034,41,18,37,356,36,24,30,115,38*79
$GPGSV,2,2,07,25,16,186,18,29,,,29,50,34,099,42*7C
$GPGLL,,,,,065106.00,V,N*4E
$GPRMC,065107.00,V,,,,,,,050823,,,N*74
$GPVTG,,,,,,,,,N*30
$GPGGA,065107.00,,,,,0,03,8.19,,,,,,*50
$GPGSA,A,1,24,13,15,,,,,,,,,,8.25,8.19,1.00*0E
$GPGSV,2,1,08,13,08,037,36,15,39,034,40,18,37,356,33,24,30,115,38*72
$GPGSV,2,2,08,25,16,186,16,26,06,270,,29,,,27,50,34,099,40*46
$GPGLL,,,,,065107.00,V,N*4F
$GPRMC,065108.00,V,,,,,,,050823,,,N*7B
$GPVTG,,,,,,,,,N*30
$GPGGA,065108.00,,,,,0,03,8.19,,,,,,*5F
$GPGSA,A,1,24,13,15,,,,,,,,,,8.25,8.19,1.00*0E
$GPGSV,2,1,08,13,08,037,36,15,39,034,40,18,37,356,37,24,30,115,38*76
$GPGSV,2,2,08,25,16,186,17,26,06,270,26,29,,,25,50,34,099,40*41
$GPGLL,,,,,065108.00,V,N*40
$GPRMC,065109.00,V,,,,,,,050823,,,N*7A
$GPVTG,,,,,,,,,N*30
$GPGGA,065109.00,,,,,0,03,8.19,,,,,,*5E
$GPGSA,A,1,24,13,15,,,,,,,,,,8.25,8.19,1.00*0E
$GPGSV,2,1,08,13,08,037,36,15,39,034,41,18,37,356,36,24,30,115,38*76
$GPGSV,2,2,08,25,16,186,16,26,06,270,25,29,,,31,50,34,099,40*46
$GPGLL,,,,,065109.00,V,N*41
$GPRMC,065110.00,V,,,,,,,050823,,,N*72
$GPVTG,,,,,,,,,N*30
$GPGGA,065110.00,,,,,0,03,8.20,,,,,,*5C
$GPGSA,A,1,24,13,15,,,,,,,,,,8.26,8.20,1.00*07
$GPGSV,2,1,08,13,07,037,38,15,39,034,41,18,37,356,35,24,30,115,40*7B
$GPGSV,2,2,08,25,16,186,16,26,06,270,25,29,,,29,50,34,099,41*4E
$GPGLL,,,,,065110.00,V,N*49
$GPRMC,065111.00,V,,,,,,,050823,,,N*73
$GPVTG,,,,,,,,,N*30
$GPGGA,065111.00,,,,,0,03,8.20,,,,,,*5D
$GPGSA,A,1,24,13,15,,,,,,,,,,8.26,8.20,1.00*07
$GPGSV,2,1,08,13,07,037,35,15,39,034,38,18,37,356,33,24,30,115,37*7E
$GPGSV,2,2,08,25,16,186,,26,06,270,25,29,,,28,50,34,099,38*46
$GPGLL,,,,,065111.00,V,N*48
$GPRMC,065112.00,V,,,,,,,050823,,,N*70
$GPVTG,,,,,,,,,N*30
$GPGGA,065112.00,,,,,0,03,8.20,,,,,,*5E
$GPGSA,A,1,24,13,15,,,,,,,,,,8.26,8.20,1.00*07
$GPGSV,3,1,09,09,,,24,13,07,037,36,15,39,034,40,18,37,356,36*4C
$GPGSV,3,2,09,24,30,115,39,25,16,186,,26,06,270,25,29,,,20*4D
$GPGSV,3,3,09,50,34,099,39*48
$GPGLL,,,,,065112.00,V,N*4B
$GPRMC,065113.00,V,,,,,,,050823,,,N*71
$GPVTG,,,,,,,,,N*30
$GPGGA,065113.00,,,,,0,03,8.20,,,,,,*5F
$GPGSA,A,1,24,13,15,,,,,,,,,,8.26,8.20,1.00*07
$GPGSV,4,1,13,04,,,25,09,,,22,11,,,24,13,07,037,26*47
$GPGSV,4,2,13,14,,,23,15,39,034,28,18,37,356,26,22,,,22*73
$GPGSV,4,3,13,24,30,115,26,25,16,186,22,26,06,270,20,29,,,16*4E
$GPGSV,4,4,13,50,34,099,30*4A
$GPGLL,,,,,065113.00,V,N*4A
$GPRMC,065114.00,V,,,,,,,050823,,,N*76
$GPVTG,,,,,,,,,N*30
$GPGGA,065114.00,,,,,0,03,8.20,,,,,,*58
$GPGSA,A,1,24,13,15,,,,,,,,,,8.26,8.20,1.00*07
$GPGSV,4,1,14,04,,,22,09,,,21,11,,,22,13,07,037,30*45
$GPGSV,4,2,14,14,,,19,15,39,034,33,18,37,356,31,22,,,20*73
$GPGSV,4,3,14,24,30,115,31,25,16,186,19,26,06,270,20,27,,,19*46
$GPGSV,4,4,14,29,,,19,50,34,099,34*4A
$GPGLL,,,,,065114.00,V,N*4D
$GPRMC,065115.00,V,,,,,,,050823,,,N*77
$GPVTG,,,,,,,,,N*30
$GPGGA,065115.00,,,,,0,03,8.21,,,,,,*58
$GPGSA,A,1,24,13,15,,,,,,,,,,8.27,8.21,1.00*07
$GPGSV,3,1,12,09,,,19,11,,,18,13,07,037,35,15,39,034,39*74
$GPGSV,3,2,12,18,38,356,35,22,,,17,24,30,115,37,25,16,186,12*41
$GPGSV,3,3,12,26,06,270,20,27,,,17,29,,,22,50,34,099,39*7F
$GPGLL,,,,,065115.00,V,N*4C
$GPRMC,065116.00,V,,,,,,,050823,,,N*74
$GPVTG,,,,,,,,,N*30
$GPGGA,065116.00,,,,,0,03,8.21,,,,,,*5B
$GPGSA,A,1,24,13,15,,,,,,,,,,8.27,8.21,1.00*07
$GPGSV,3,1,11,09,,,17,11,,,15,13,07,037,36,15,39,034,39*77
$GPGSV,3,2,11,18,38,356,32,24,30,115,35,25,16,186,11,26,06,270,20*77
$GPGSV,3,3,11,27,,,12,29,,,24,50,34,099,38*4B
$GPGLL,,,,,065116.00,V,N*4F
$GPRMC,065117.00,V,,,,,,,050823,,,N*75
$GPVTG,,,,,,,,,N*30
$GPGGA,065117.00,,,,,0,03,8.21,,,,,,*5A
$GPGSA,A,1,24,13,15,,,,,,,,,,8.27,8.21,1.00*07
$GPGSV,3,1,09,13,07,037,35,15,39,034,40,18,38,356,33,24,30,115,37*7E
$GPGSV,3,2,09,25,16,186,16,26,06,270,22,28,,,22,29,,,29*74
$GPGSV,3,3,09,50,34,099,40*46
$GPGLL,,,,,065117.00,V,N*4E
$GPRMC,065118.00,V,,,,,,,050823,,,N*7A
$GPVTG,,,,,,,,,N*30
$GPGGA,065118.00,,,,,0,03,8.21,,,,,,*55
$GPGSA,A,1,24,13,15,,,,,,,,,,8.27,8.21,1.00*07
$GPGSV,3,1,09,13,07,037,36,15,39,034,41,18,38,356,34,24,30,115,37*7B
$GPGSV,3,2,09,25,16,186,14,26,06,270,22,28,,,22,29,,,29*76
$GPGSV,3,3,09,50,34,099,40*46
$GPGLL,,,,,065118.00,V,N*41
$GPRMC,065119.00,V,,,,,,,050823,,,N*7B
$GPVTG,,,,,,,,,N*30
$GPGGA,065119.00,,,,,0,03,8.21,,,,,,*54
$GPGSA,A,1,24,13,15,,,,,,,,,,8.28,8.21,1.00*08
$GPGSV,3,1,09,13,07,037,35,15,39,034,41,18,38,356,35,24,30,115,34*7A
$GPGSV,3,2,09,25,16,186,11,26,06,270,21,28,,,21,29,,,28*72
$GPGSV,3,3,09,50,34,099,40*46
$GPGLL,,,,,065119.00,V,N*40
$GPRMC,065120.00,V,,,,,,,050823,,,N*71
$GPVTG,,,,,,,,,N*30
$GPGGA,065120.00,,,,,0,03,8.22,,,,,,*5D
$GPGSA,A,1,24,13,15,,,,,,,,,,8.28,8.22,1.00*0B
$GPGSV,3,1,09,13,07,037,36,15,39,034,40,18,38,356,34,24,30,115,37*7A
$GPGSV,3,2,09,25,16,186,,26,06,270,21,28,,,20,29,,,27*7C
$GPGSV,3,3,09,50,34,099,41*47
$GPGLL,,,,,065120.00,V,N*4A
$GPRMC,065121.00,V,,,,,,,050823,,,N*70
$GPVTG,,,,,,,,,N*30
$GPGGA,065121.00,,,,,0,03,8.22,,,,,,*5C
$GPGSA,A,1,24,13,15,,,,,,,,,,8.28,8.22,1.00*0B
$GPGSV,3,1,10,13,07,037,36,15,39,034,41,18,38,356,36,24,30,114,37*70
$GPGSV,3,2,10,25,16,186,26,26,06,270,20,28,,,27,29,,,26*77
$GPGSV,3,3,10,32,,,26,50,34,099,40*4B
$GPGLL,,,,,065121.00,V,N*4B
$GPRMC,065122.00,V,,,,,,,050823,,,N*73
$GPVTG,,,,,,,,,N*30
$GPGGA,065122.00,,,,,0,03,8.22,,,,,,*5F
$GPGSA,A,1,24,13,15,,,,,,,,,,8.28,8.22,1.00*0B
$GPGSV,3,1,10,13,07,037,36,15,39,034,42,18,38,356,36,24,30,114,31*75
$GPGSV,3,2,10,25,16,185,25,26,06,270,19,28,,,25,29,,,27*7E
$GPGSV,3,3,10,32,,,24,50,34,099,41*48
$GPGLL,,,,,065122.00,V,N*48
$GPRMC,065123.00,V,,,,,,,050823,,,N*72
$GPVTG,,,,,,,,,N*30
$GPGGA,065123.00,,,,,0,03,8.22,,,,,,*5E
$GPGSA,A,1,24,13,15,,,,,,,,,,8.28,8.22,1.00*0B
$GPGSV,3,1,12,13,07,037,35,15,39,034,38,18,38,356,33,24,30,114,36*7B
$GPGSV,3,2,12,25,16,185,21,26,06,269,20,27,,,21,28,,,24*73
$GPGSV,3,3,12,29,,,26,30,,,19,32,,,23,50,34,099,40*48
$GPGLL,,,,,065123.00,V,N*49
$GPRMC,065124.00,V,,,,,,,050823,,,N*75
$GPVTG,,,,,,,,,N*30
$GPGGA,065124.00,,,,,0,03,8.22,,,,,,*59
$GPGSA,A,1,24,13,15,,,,,,,,,,8.29,8.22,1.00*0A
$GPGSV,3,1,10,13,07,037,35,15,39,034,40,18,38,356,33,24,30,114,34*74
$GPGSV,3,2,10,25,16,185,21,26,06,269,20,28,,,23,29,,,24*7D
$GPGSV,3,3,10,32,,,22,50,34,099,38*40
$GPGLL,,,,,065124.00,V,N*4E
$GPRMC,065125.00,V,,,,,,,050823,,,N*74
$GPVTG,,,,,,,,,N*30
$GPGGA,065125.00,,,,,0,03,8.23,,,,,,*59
$GPGSA,A,1,24,13,15,,,,,,,,,,8.29,8.23,1.00*0B
$GPGSV,3,1,10,13,07,037,35,15,39,034,39,18,38,356,34,24,30,114,36*7F
$GPGSV,3,2,10,25,16,185,20,26,06,269,19,28,,,23,29,,,23*71
$GPGSV,3,3,10,32,,,22,50,34,099,40*4F
$GPGLL,,,,,065125.00,V,N*4F
$GPRMC,065126.00,V,,,,,,,050823,,,N*77
$GPVTG,,,,,,,,,N*30
$GPGGA,065126.00,,,,,0,03,8.23,,,,,,*5A
$GPGSA,A,1,24,13,15,,,,,,,,,,8.29,8.23,1.00*0B
$GPGSV,3,1,10,13,07,037,34,15,39,034,41,18,38,356,34,24,30,114,37*70
$GPGSV,3,2,10,25,16,185,19,26,06,269,19,28,,,23,29,,,23*7B
$GPGSV,3,3,10,32,,,22,50,34,099,41*4E
$GPGLL,,,,,065126.00,V,N*4C
$GPRMC,065127.00,V,,,,,,,050823,,,N*76
$GPVTG,,,,,,,,,N*30
$GPGGA,065127.00,,,,,0,03,8.23,,,,,,*5B
$GPGSA,A,1,24,13,15,,,,,,,,,,8.29,8.23,1.00*0B
$GPGSV,3,1,10,13,07,037,36,15,39,034,42,18,38,356,36,24,30,114,35*71
$GPGSV,3,2,10,25,16,185,20,26,06,269,19,28,,,22,29,,,22*71
$GPGSV,3,3,10,32,,,22,50,34,099,42*4D
$GPGLL,,,,,065127.00,V,N*4D
$GPRMC,065128.00,V,,,,,,,050823,,,N*79
$GPVTG,,,,,,,,,N*30
$GPGGA,065128.00,,,,,0,03,8.23,,,,,,*54
$GPGSA,A,1,24,13,15,,,,,,,,,,8.29,8.23,1.00*0B
$GPGSV,3,1,12,13,07,037,34,15,39,034,41,18,38,356,33,24,30,114,34*76
$GPGSV,3,2,12,25,16,185,21,26,06,269,18,28,,,22,29,,,24*75
$GPGSV,3,3,12,30,,,21,31,,,25,32,,,22,50,34,099,40*48
$GPGLL,,,,,065128.00,V,N*42
$GPRMC,065129.00,V,,,,,,,050823,,,N*78
$GPVTG,,,,,,,,,N*30
$GPGGA,065129.00,,,,,0,03,8.24,,,,,,*52
$GPGSA,A,1,24,13,15,,,,,,,,,,8.30,8.24,1.00*04
$GPGSV,3,1,10,13,07,037,33,15,39,034,40,18,38,356,34,24,30,114,32*73
$GPGSV,3,2,10,25,16,185,21,26,06,269,19,28,,,22,29,,,23*71
$GPGSV,3,3,10,32,,,22,50,34,099,38*40
$GPGLL,,,,,065129.00,V,N*43
$GPRMC,065130.00,V,,,,,,,050823,,,N*70
$GPVTG,,,,,,,,,N*30
$GPGGA,065130.00,,,,,0,03,8.24,,,,,,*5A
$GPGSA,A,1,24,13,15,,,,,,,,,,8.30,8.24,1.00*04
$GPGSV,3,1,10,13,07,037,33,15,39,034,40,18,38,356,33,24,30,114,34*72
$GPGSV,3,2,10,25,16,185,20,26,06,269,20,28,,,20,29,,,23*78
$GPGSV,3,3,10,32,,,22,50,34,099,39*41
$GPGLL,,,,,065130.00,V,N*4B
$GPRMC,065131.00,A,1049.89872,N,07841.68224,E,0.399,,050823,,,A*7F
$GPVTG,,T,,M,0.399,N,0.739,K,A*2D
$GPGGA,065131.00,1049.89872,N,07841.68224,E,1,04,3.80,91.0,M,-93.0,M,,*4C
$GPGSA,A,3,24,18,13,15,,,,,,,,,5.40,3.80,3.84*0E
$GPGSV,3,1,09,13,07,037,32,15,39,034,40,18,38,356,31,24,30,114,34*79
$GPGSV,3,2,09,25,16,185,19,26,06,269,21,29,,,25,32,,,22*74
$GPGSV,3,3,09,50,34,099,38*49
$GPGLL,1049.89872,N,07841.68224,E,065131.00,A,A*69
$GPRMC,065132.00,A,1049.89896,N,07841.68220,E,0.136,,050823,,,A*75
$GPVTG,,T,,M,0.136,N,0.252,K,A*22
$GPGGA,065132.00,1049.89896,N,07841.68220,E,1,04,3.80,89.9,M,-93.0,M,,*41
$GPGSA,A,3,24,18,13,15,,,,,,,,,5.40,3.80,3.84*0E
$GPGSV,3,1,09,13,07,037,35,15,39,034,39,18,38,356,32,24,30,114,35*72
$GPGSV,3,2,09,25,16,185,17,26,06,269,20,29,,,26,32,,,21*7B
$GPGSV,3,3,09,50,34,099,37*46
$GPGLL,1049.89896,N,07841.68220,E,065132.00,A,A*64
$GPRMC,065133.00,A,1049.89881,N,07841.68181,E,0.176,,050823,,,A*7E
$GPVTG,,T,,M,0.176,N,0.326,K,A*24
$GPGGA,065133.00,1049.89881,N,07841.68181,E,1,04,3.80,88.9,M,-93.0,M,,*4F
$GPGSA,A,3,24,18,13,15,,,,,,,,,5.40,3.80,3.84*0E
$GPGSV,3,1,10,13,07,037,35,15,39,034,42,18,38,356,33,24,30,114,35*77
$GPGSV,3,2,10,25,16,185,14,26,06,269,20,28,,,20,29,,,26*7A
$GPGSV,3,3,10,32,,,20,50,34,099,40*4D
$GPGLL,1049.89881,N,07841.68181,E,065133.00,A,A*6B
$GPRMC,065134.00,A,1049.89882,N,07841.68205,E,0.231,,050823,,,A*75
$GPVTG,,T,,M,0.231,N,0.427,K,A*22
$GPGGA,065134.00,1049.89882,N,07841.68205,E,1,04,3.80,88.5,M,-93.0,M,,*48
$GPGSA,A,3,24,18,13,15,,,,,,,,,5.40,3.80,3.84*0E
$GPGSV,3,1,10,13,07,037,35,15,39,034,41,18,38,356,38,24,30,114,36*7C
$GPGSV,3,2,10,25,16,185,12,26,06,269,19,28,,,20,29,,,26*76
$GPGSV,3,3,10,32,,,19,50,34,099,40*47
$GPGLL,1049.89882,N,07841.68205,E,065134.00,A,A*60
$GPRMC,065135.00,A,1049.89899,N,07841.68203,E,1.094,248.40,050823,,,A*60
$GPVTG,248.40,T,,M,1.094,N,2.025,K,A*3E
$GPGGA,065135.00,1049.89899,N,07841.68203,E,1,04,3.80,88.1,M,-93.0,M,,*41
$GPGSA,A,3,24,18,13,15,,,,,,,,,5.40,3.80,3.84*0E
$GPGSV,3,1,09,13,07,037,35,15,39,034,42,18,38,356,35,24,30,114,38*74
$GPGSV,3,2,09,25,16,185,14,26,06,269,19,28,,,20,29,,,31*7E
$GPGSV,3,3,09,50,34,099,40*46
$GPGLL,1049.89899,N,07841.68203,E,065135.00,A,A*6D
$GPRMC,065136.00,A,1049.89911,N,07841.68211,E,1.234,243.60,050823,,,A*60
$GPVTG,243.60,T,,M,1.234,N,2.286,K,A*34
$GPGGA,065136.00,1049.89911,N,07841.68211,E,1,04,3.80,87.9,M,-93.0,M,,*47
$GPGSA,A,3,24,18,13,15,,,,,,,,,5.40,3.80,3.84*0E
$GPGSV,2,1,08,13,07,037,36,15,39,034,43,18,38,356,37,24,30,114,38*74
$GPGSV,2,2,08,25,16,185,18,26,06,269,19,29,,,29,50,34,099,42*47
$GPGLL,1049.89911,N,07841.68211,E,065136.00,A,A*6C
$GPRMC,065137.00,A,1049.89910,N,07841.68197,E,0.015,,050823,,,A*70
$GPVTG,,T,,M,0.015,N,0.029,K,A*2C
$GPGGA,065137.00,1049.89910,N,07841.68197,E,1,04,3.81,87.5,M,-93.0,M,,*47
$GPGSA,A,3,24,18,13,15,,,,,,,,,5.41,3.81,3.84*0E
$GPGSV,3,1,09,13,07,037,33,15,39,034,39,18,38,356,31,24,30,114,36*74
$GPGSV,3,2,09,25,16,185,18,26,06,269,17,28,,,20,29,,,21*7D
$GPGSV,3,3,09,50,34,099,38*49
$GPGLL,1049.89910,N,07841.68197,E,065137.00,A,A*61
$GPRMC,065138.00,A,1049.89918,N,07841.68210,E,2.187,151.61,050823,,,A*6F
$GPVTG,151.61,T,,M,2.187,N,4.051,K,A*33
$GPGGA,065138.00,1049.89918,N,07841.68210,E,1,04,3.81,87.3,M,-93.0,M,,*4A
$GPGSA,A,3,24,18,13,15,,,,,,,,,5.41,3.81,3.84*0E
$GPGSV,3,1,09,13,07,037,34,15,39,034,41,18,38,356,33,24,30,114,37*7F
$GPGSV,3,2,09,25,16,185,19,26,06,269,16,28,,,18,29,,,25*72
$GPGSV,3,3,09,50,34,099,40*46
$GPGLL,1049.89918,N,07841.68210,E,065138.00,A,A*6A
$GPRMC,065139.00,A,1049.89933,N,07841.68211,E,0.205,,050823,,,A*71
$GPVTG,,T,,M,0.205,N,0.379,K,A*29
$GPGGA,065139.00,1049.89933,N,07841.68211,E,1,04,3.81,87.4,M,-93.0,M,,*44
$GPGSA,A,3,24,18,13,15,,,,,,,,,5.41,3.81,3.84*0E
$GPGSV,3,1,09,13,07,037,34,15,39,034,41,18,38,356,34,24,30,114,38*77
$GPGSV,3,2,09,25,16,185,18,26,06,269,13,28,,,15,29,,,27*79
$GPGSV,3,3,09,50,34,099,40*46
$GPGLL,1049.89933,N,07841.68211,E,065139.00,A,A*63
$GPRMC,065140.00,A,1049.89960,N,07841.68237,E,1.698,207.66,050823,,,A*67
$GPVTG,207.66,T,,M,1.698,N,3.145,K,A*3D
$GPGGA,065140.00,1049.89960,N,07841.68237,E,1,04,3.81,88.0,M,-93.0,M,,*43
$GPGSA,A,3,24,18,13,15,,,,,,,,,5.41,3.81,3.84*0E
$GPGSV,3,1,09,13,07,037,33,15,39,034,40,18,38,356,35,24,30,114,38*70
$GPGSV,3,2,09,25,16,185,19,26,06,269,16,28,,,13,29,,,28*74
$GPGSV,3,3,09,50,34,099,40*46
$GPGLL,1049.89960,N,07841.68237,E,065140.00,A,A*6F
$GPRMC,065141.00,A,1049.89975,N,07841.68244,E,0.758,214.57,050823,,,A*6A
$GPVTG,214.57,T,,M,0.758,N,1.404,K,A*33
$GPGGA,065141.00,1049.89975,N,07841.68244,E,1,04,3.81,88.1,M,-93.0,M,,*43
$GPGSA,A,3,24,18,13,15,,,,,,,,,5.41,3.81,3.84*0E
$GPGSV,3,1,09,13,07,037,37,15,39,034,42,18,38,356,36,24,30,114,39*74
$GPGSV,3,2,09,25,16,185,19,26,06,269,20,28,,,12,29,,,29*71
$GPGSV,3,3,09,50,34,099,41*47
$GPGLL,1049.89975,N,07841.68244,E,065141.00,A,A*6E
$GPRMC,065142.00,A,1049.89984,N,07841.68242,E,0.555,,050823,,,A*75
$GPVTG,,T,,M,0.555,N,1.028,K,A*2D
$GPGGA,065142.00,1049.89984,N,07841.68242,E,1,04,3.81,88.1,M,-93.0,M,,*48
$GPGSA,A,3,24,18,13,15,,,,,,,,,5.41,3.81,3.84*0E
$GPGSV,2,1,08,13,07,037,35,15,39,034,42,18,38,356,35,24,30,114,39*75
$GPGSV,2,2,08,25,16,185,20,26,06,269,22,29,,,29,50,34,099,41*47
$GPGLL,1049.89984,N,07841.68242,E,065142.00,A,A*65
$GPRMC,065143.00,A,1049.90000,N,07841.68250,E,1.317,102.01,050823,,,A*67
$GPVTG,102.01,T,,M,1.317,N,2.439,K,A*37
$GPGGA,065143.00,1049.90000,N,07841.68250,E,1,04,3.82,88.3,M,-93.0,M,,*46
$GPGSA,A,3,24,18,13,15,,,,,,,,,5.41,3.82,3.84*0D
$GPGSV,2,1,08,13,07,037,35,15,39,034,40,18,38,356,35,24,30,114,39*77
$GPGSV,2,2,08,25,16,185,19,26,06,269,23,29,,,30,50,34,099,41*44
$GPGLL,1049.90000,N,07841.68250,E,065143.00,A,A*6A
$GPRMC,065144.00,A,1049.90018,N,07841.68275,E,0.219,,050823,,,A*7C
$GPVTG,,T,,M,0.219,N,0.406,K,A*2B
$GPGGA,065144.00,1049.90018,N,07841.68275,E,1,04,3.82,88.6,M,-93.0,M,,*4A
$GPGSA,A,3,24,18,13,15,,,,,,,,,5.42,3.82,3.84*0E
$GPGSV,2,1,08,13,07,037,35,15,39,034,40,18,38,356,32,24,30,114,37*7E
$GPGSV,2,2,08,25,16,185,17,26,06,269,23,29,,,28,50,34,099,39*4C
$GPGLL,1049.90018,N,07841.68275,E,065144.00,A,A*63
$GPRMC,065145.00,A,1049.90027,N,07841.68282,E,0.145,,050823,,,A*73
$GPVTG,,T,,M,0.145,N,0.269,K,A*2E
$GPGGA,065145.00,1049.90027,N,07841.68282,E,1,04,3.82,88.9,M,-93.0,M,,*40
$GPGSA,A,3,24,18,13,15,,,,,,,,,5.42,3.82,3.84*0E
$GPGSV,2,1,08,13,07,037,36,15,39,034,41,18,38,356,35,24,30,114,38*74
$GPGSV,2,2,08,25,16,185,15,26,06,269,22,29,,,28,50,34,099,39*4F
$GPGLL,1049.90027,N,07841.68282,E,065145.00,A,A*66
$GPRMC,065146.00,A,1049.90037,N,07841.68295,E,0.846,90.85,050823,,,A*57
$GPVTG,90.85,T,,M,0.846,N,1.566,K,A*07
$GPGGA,065146.00,1049.90037,N,07841.68295,E,1,04,3.82,89.3,M,-93.0,M,,*4F
$GPGSA,A,3,24,18,13,15,,,,,,,,,5.42,3.82,3.84*0E
$GPGSV,2,1,08,13,07,037,33,15,39,034,41,18,38,356,35,24,30,114,39*70
$GPGSV,2,2,08,25,16,185,13,26,06,269,23,29,,,26,50,34,099,39*46
$GPGLL,1049.90037,N,07841.68295,E,065146.00,A,A*62
$GPRMC,065147.00,A,1049.90042,N,07841.68287,E,0.795,,050823,,,D*79
$GPVTG,,T,,M,0.795,N,1.472,K,D*2D
$GPGGA,065147.00,1049.90042,N,07841.68287,E,2,04,3.82,89.2,M,-93.0,M,,0000*4D
$GPGSA,A,3,24,18,13,15,,,,,,,,,5.42,3.82,3.84*0E
$GPGSV,3,1,09,13,07,037,39,15,39,034,42,18,38,356,35,23,,,35*45
$GPGSV,3,2,09,24,30,114,39,25,16,185,15,26,06,269,23,29,,,26*43
$GPGSV,3,3,09,50,34,099,36*47
$GPGLL,1049.90042,N,07841.68287,E,065147.00,A,D*67
$GPRMC,065148.00,A,1049.90041,N,07841.68278,E,0.778,168.80,050823,,,D*6F
$GPVTG,168.80,T,,M,0.778,N,1.442,K,D*34
$GPGGA,065148.00,1049.90041,N,07841.68278,E,2,04,3.82,89.3,M,-93.0,M,,0000*40
$GPGSA,A,3,24,18,13,15,,,,,,,,,5.42,3.82,3.84*0E
$GPGSV,3,1,09,13,07,037,38,15,39,034,44,18,38,356,33,23,,,35*44
$GPGSV,3,2,09,24,30,114,42,25,16,185,21,26,06,269,23,29,,,27*49
$GPGSV,3,3,09,50,34,099,37*46
$GPGLL,1049.90041,N,07841.68278,E,065148.00,A,D*6B
$GPRMC,065149.00,A,1049.90053,N,07841.68280,E,2.503,224.27,050823,,,D*60
$GPVTG,224.27,T,,M,2.503,N,4.636,K,D*3A
$GPGGA,065149.00,1049.90053,N,07841.68280,E,2,04,3.82,90.2,M,-93.0,M,,0000*4C
$GPGSA,A,3,24,18,13,15,,,,,,,,,5.42,3.82,3.84*0E
$GPGSV,3,1,09,13,07,037,33,15,39,034,39,18,38,356,41,23,,,25*41
$GPGSV,3,2,09,24,30,114,43,25,16,185,23,26,06,269,20,29,,,26*48
$GPGSV,3,3,09,50,34,099,37*46
$GPGLL,1049.90053,N,07841.68280,E,065149.00,A,D*6E
$GPRMC,065150.00,A,1049.90002,N,07841.68167,E,4.605,241.98,050823,,,D*62
$GPVTG,241.98,T,,M,4.605,N,8.528,K,D*3E
$GPGGA,065150.00,1049.90002,N,07841.68167,E,2,04,3.83,89.7,M,-93.0,M,,0000*46
$GPGSA,A,3,24,18,13,15,,,,,,,,,5.42,3.83,3.84*0F
$GPGSV,3,1,09,13,07,037,42,15,39,034,45,18,38,356,27,23,,,23*4A
$GPGSV,3,2,09,24,30,114,44,25,16,185,21,26,06,269,19,29,,,25*44
$GPGSV,3,3,09,50,34,099,39*48
$GPGLL,1049.90002,N,07841.68167,E,065150.00,A,D*68
$GPRMC,065151.00,A,1049.89984,N,07841.68082,E,4.364,252.76,050823,,,D*66
$GPVTG,252.76,T,,M,4.364,N,8.082,K,D*3B
$GPGGA,065151.00,1049.89984,N,07841.68082,E,2,04,3.83,90.2,M,-93.0,M,,0000*4F
$GPGSA,A,3,24,18,13,15,,,,,,,,,5.43,3.83,3.85*0F
$GPGSV,3,1,09,13,07,037,37,15,39,034,35,18,38,356,27,23,,,22*4E
$GPGSV,3,2,09,24,30,114,37,25,16,185,21,26,06,269,18,29,,,25*41
$GPGSV,3,3,09,50,34,099,30*41
$GPGLL,1049.89984,N,07841.68082,E,065151.00,A,D*6C
$GPRMC,065152.00,A,1049.89978,N,07841.68035,E,3.962,254.27,050823,,,D*63
$GPVTG,254.27,T,,M,3.962,N,7.338,K,D*3F
$GPGGA,065152.00,1049.89978,N,07841.68035,E,2,04,3.83,90.2,M,-93.0,M,,0000*43
$GPGSA,A,3,24,18,13,15,,,,,,,,,5.43,3.83,3.85*0F
$GPGSV,3,1,09,13,07,037,28,15,39,034,36,18,38,356,28,23,,,18*45
$GPGSV,3,2,09,24,30,114,41,25,16,185,20,26,06,269,21,29,,,24*4A
$GPGSV,3,3,09,50,34,099,36*47
$GPGLL,1049.89978,N,07841.68035,E,065152.00,A,D*60
$GPRMC,065153.00,A,1049.89944,N,07841.67861,E,7.760,258.20,050823,,,D*68
$GPVTG,258.20,T,,M,7.760,N,14.372,K,D*00
$GPGGA,065153.00,1049.89944,N,07841.67861,E,2,04,3.83,90.5,M,-93.0,M,,0000*4C
$GPGSA,A,3,24,18,13,15,,,,,,,,,5.43,3.83,3.85*0F
$GPGSV,3,1,09,13,07,037,29,15,39,034,31,18,38,356,25,23,,,16*40
$GPGSV,3,2,09,24,30,114,40,25,16,185,17,26,06,269,17,29,,,20*4E
$GPGSV,3,3,09,50,34,099,34*45
$GPGLL,1049.89944,N,07841.67861,E,065153.00,A,D*68
$GPRMC,065154.00,A,1049.89891,N,07841.67698,E,9.397,256.45,050823,,,D*61
$GPVTG,256.45,T,,M,9.397,N,17.404,K,D*0A
$GPGGA,065154.00,1049.89891,N,07841.67698,E,2,04,3.83,90.8,M,-93.0,M,,0000*47
$GPGSA,A,3,24,18,13,15,,,,,,,,,5.43,3.83,3.85*0F
$GPGSV,3,1,09,13,07,037,29,15,39,034,22,18,38,356,22,23,,,10*43
$GPGSV,3,2,09,24,30,114,33,25,16,185,15,26,06,269,10,29,,,18*44
$GPGSV,3,3,09,50,34,099,34*45
$GPGLL,1049.89891,N,07841.67698,E,065154.00,A,D*6E
$GPRMC,065155.00,A,1049.89859,N,07841.67563,E,8.062,256.28,050823,,,D*60
$GPVTG,256.28,T,,M,8.062,N,14.932,K,D*02
$GPGGA,065155.00,1049.89859,N,07841.67563,E,2,04,3.83,90.7,M,-93.0,M,,0000*4A
$GPGSA,A,3,24,18,13,15,,,,,,,,,5.43,3.83,3.85*0F
$GPGSV,3,1,09,13,07,037,29,15,39,034,24,18,38,356,19,23,,,08*44
$GPGSV,3,2,09,24,30,114,39,25,16,185,13,26,06,269,08,29,,,16*4F
$GPGSV,3,3,09,50,34,099,33*42
$GPGLL,1049.89859,N,07841.67563,E,065155.00,A,D*6C
$GPRMC,065156.00,A,1049.89794,N,07841.67399,E,8.111,256.05,050823,,,D*64
$GPVTG,256.05,T,,M,8.111,N,15.021,K,D*02
$GPGGA,065156.00,1049.89794,N,07841.67399,E,2,04,3.84,89.8,M,-93.0,M,,0000*44
$GPGSA,A,3,24,18,13,15,,,,,,,,,5.43,3.84,3.85*08
$GPGSV,3,1,09,13,07,037,29,15,39,034,34,18,38,356,21,23,,,09*4F
$GPGSV,3,2,09,24,30,114,31,25,16,185,09,26,06,269,05,29,,,17*40
$GPGSV,3,3,09,50,34,099,27*47
$GPGLL,1049.89794,N,07841.67399,E,065156.00,A,D*62
$GPRMC,065157.00,A,1049.89746,N,07841.67231,E,13.746,250.79,050823,,,D*5A
$GPVTG,250.79,T,,M,13.746,N,25.458,K,D*38
$GPGGA,065157.00,1049.89746,N,07841.67231,E,2,04,3.84,90.0,M,-93.0,M,,0000*49
$GPGSA,A,3,24,18,13,15,,,,,,,,,5.43,3.84,3.85*08
$GPGSV,3,1,09,13,07,037,30,15,39,034,23,18,38,356,20,23,,,13*4B
$GPGSV,3,2,09,24,30,114,31,25,16,185,09,26,06,269,05,29,,,16*41
$GPGSV,3,3,09,50,34,099,27*47
$GPGLL,1049.89746,N,07841.67231,E,065157.00,A,D*6F
$GPRMC,065158.00,V,,,,,,,050823,,,N*7E
$GPVTG,,,,,,,,,N*30
$GPGGA,065158.00,,,,,0,04,8.30,,,,,,0000*56
$GPGSA,A,1,24,18,13,15,,,,,,,,,8.36,8.30,1.00*0E
$GPGSV,3,1,09,13,07,037,36,15,39,034,28,18,38,356,17,23,,,15*44
$GPGSV,3,2,09,24,30,114,34,25,16,185,,26,06,269,05,29,,,16*4D
$GPGSV,3,3,09,50,34,099,30*41
$GPGLL,,,,,065158.00,V,N*45
$GPRMC,065159.00,V,,,,,,,050823,,,N*7F
$GPVTG,,,,,,,,,N*30
$GPGGA,065159.00,,,,,0,04,8.30,,,,,,0000*57
$GPGSA,A,1,24,18,13,15,,,,,,,,,8.36,8.30,1.00*0E
$GPGSV,3,1,09,13,07,037,28,15,39,034,32,18,38,356,16,23,,,12*46
$GPGSV,3,2,09,24,30,114,25,25,16,185,,26,06,269,05,29,,,14*4F
$GPGSV,3,3,09,50,34,099,28*48
$GPGLL,,,,,065159.00,V,N*44
$GPRMC,065200.00,V,,,,,,,050823,,,N*70
$GPVTG,,,,,,,,,N*30
$GPGGA,065200.00,,,,,0,04,8.30,,,,,,0000*58
$GPGSA,A,1,24,18,13,15,,,,,,,,,8.36,8.30,1.00*0E
$GPGSV,3,1,09,13,07,037,28,15,39,034,32,18,38,356,19,23,,,09*43
$GPGSV,3,2,09,24,30,114,39,25,16,185,,26,06,269,05,29,,,14*42
$GPGSV,3,3,09,50,34,099,*42
$GPGLL,,,,,065200.00,V,N*4B
$GPRMC,065201.00,V,,,,,,,050823,,,N*71
$GPVTG,,,,,,,,,N*30
$GPGGA,065201.00,,,,,0,04,8.31,,,,,,0000*58
$GPGSA,A,1,24,18,13,15,,,,,,,,,8.37,8.31,1.00*0E
$GPGSV,3,1,09,13,07,037,20,15,39,034,33,18,38,356,20,23,,,08*41
$GPGSV,3,2,09,24,30,114,37,25,16,185,,26,06,269,05,29,,,18*40
$GPGSV,3,3,09,50,34,099,*42
$GPGLL,,,,,065201.00,V,N*4A
$GPRMC,065202.00,V,,,,,,,050823,,,N*72
$GPVTG,,,,,,,,,N*30
$GPGGA,065202.00,,,,,0,04,8.31,,,,,,0000*5B
$GPGSA,A,1,24,18,13,15,,,,,,,,,8.37,8.31,1.00*0E
$GPGSV,3,1,09,13,07,037,24,15,39,034,32,18,38,356,20,23,,,08*44
$GPGSV,3,2,09,24,30,114,32,25,16,185,,26,06,269,07,29,,,18*47
$GPGSV,3,3,09,50,34,099,*42
$GPGLL,,,,,065202.00,V,N*49
$GPRMC,065203.00,A,1049.89389,N,07841.66793,E,7.921,251.50,050823,,,D*63
$GPVTG,251.50,T,,M,7.921,N,14.670,K,D*02
$GPGGA,065203.00,1049.89389,N,07841.66793,E,2,04,3.85,79.0,M,-93.0,M,,0000*46
$GPGSA,A,3,24,18,13,15,,,,,,,,,5.44,3.85,3.85*0E
$GPGSV,3,1,09,13,07,037,25,15,39,034,32,18,38,356,21,23,,,08*44
$GPGSV,3,2,09,24,30,114,32,25,16,185,,26,06,269,08,29,,,17*47
$GPGSV,3,3,09,50,34,099,*42
$GPGLL,1049.89389,N,07841.66793,E,065203.00,A,D*66
$GPRMC,065204.00,A,1049.89306,N,07841.66782,E,7.649,251.23,050823,,,D*66
$GPVTG,251.23,T,,M,7.649,N,14.166,K,D*07
$GPGGA,065204.00,1049.89306,N,07841.66782,E,2,04,3.85,76.4,M,-93.0,M,,0000*4D
$GPGSA,A,3,24,18,13,15,,,,,,,,,5.45,3.85,3.85*0F
$GPGSV,3,1,09,13,07,037,24,15,39,034,28,18,38,356,22,23,,,09*4C
$GPGSV,3,2,09,24,30,114,31,25,16,185,,26,06,269,,29,,,15*4E
$GPGSV,3,3,09,50,34,099,*42
$GPGLL,1049.89306,N,07841.66782,E,065204.00,A,D*66
$GPRMC,065205.00,A,1049.89225,N,07841.66850,E,5.817,251.38,050823,,,D*6A
$GPVTG,251.38,T,,M,5.817,N,10.774,K,D*0B
$GPGGA,065205.00,1049.89225,N,07841.66850,E,2,04,3.85,74.7,M,-93.0,M,,0000*4D
$GPGSA,A,3,24,18,13,15,,,,,,,,,5.45,3.85,3.85*0F
$GPGSV,3,1,09,13,07,037,24,15,39,034,28,18,38,356,21,23,,,09*4F
$GPGSV,3,2,09,24,30,114,30,25,16,185,,26,06,269,,29,,,15*4F
$GPGSV,3,3,09,50,34,099,*42
$GPGLL,1049.89225,N,07841.66850,E,065205.00,A,D*67
